{"header":{"status":"OK","error":null},"payload":[{"id":"1","location_id":"4","name":"Byxelkroks Golf & Stugor","stars":"2","price_per_night":"450","conference":"0","spa":"0","gym":"0","pet_friendly":"1","latitude":"57.310726","longitude":"16.995506"},{"id":"17","location_id":"42","name":"Korr\u00f6 Vandrarhem","stars":"2","price_per_night":"450","conference":"0","spa":"0","gym":"0","pet_friendly":"1","latitude":"56.6253179","longitude":"15.195808"},{"id":"16","location_id":"41","name":"Hassel\u00f6 Vandrarhem","stars":"2","price_per_night":"500","conference":"0","spa":"0","gym":"0","pet_friendly":"0","latitude":"57.4817517","longitude":"16.2564049"},{"id":"10","location_id":"34","name":"Bj\u00f6rkbacken","stars":"3","price_per_night":"800","conference":"0","spa":"0","gym":"0","pet_friendly":"0","latitude":"57.6741786","longitude":"15.8845522"},{"id":"29","location_id":"55","name":" Grand Hotel J\u00f6nk\u00f6ping","stars":"3","price_per_night":"800","conference":"1","spa":"1","gym":"0","pet_friendly":"1","latitude":"57.7816893","longitude":"14.1747012"},{"id":"21","location_id":"47","name":"Rasta Kalmar","stars":"3","price_per_night":"890","conference":"0","spa":"0","gym":"0","pet_friendly":"0","latitude":"56.6838899","longitude":"16.3192484"},{"id":"20","location_id":"45","name":"Slottshotellet","stars":"4","price_per_night":"895","conference":"1","spa":"1","gym":"0","pet_friendly":"0","latitude":"56.6614599","longitude":"16.3523473"},{"id":"19","location_id":"44","name":"Sm\u00e5landsbyn","stars":"2","price_per_night":"900","conference":"0","spa":"0","gym":"0","pet_friendly":"0","latitude":"57.657766","longitude":"15.8410723"},{"id":"26","location_id":"52","name":"Frimurarehotellet","stars":"3","price_per_night":"900","conference":"0","spa":"0","gym":"0","pet_friendly":"0","latitude":"56.6623823","longitude":"16.3585013"},{"id":"27","location_id":"53","name":"Eksj\u00f6 Stadshotell","stars":"3","price_per_night":"1000","conference":"1","spa":"1","gym":"0","pet_friendly":"0","latitude":"57.666766","longitude":"14.9676933"},{"id":"28","location_id":"54","name":"Bj\u00f6rkbackens Karakt\u00e4rshotell","stars":"3","price_per_night":"1000","conference":"0","spa":"0","gym":"0","pet_friendly":"0","latitude":"57.662239","longitude":"15.8748756"},{"id":"7","location_id":"26","name":"Hotel Mullsj\u00f6","stars":"4","price_per_night":"1090","conference":"1","spa":"0","gym":"0","pet_friendly":"0","latitude":"57.9049109","longitude":"13.8224572"},{"id":"3","location_id":"9","name":"Quality Hotel","stars":"3","price_per_night":"1090","conference":"1","spa":"1","gym":"0","pet_friendly":"1","latitude":"56.8979192","longitude":"14.8653257"},{"id":"30","location_id":"56","name":"Hotell Rum Oscar","stars":"3","price_per_night":"1100","conference":"0","spa":"0","gym":"0","pet_friendly":"1","latitude":"57.2631113","longitude":"16.4431048"},{"id":"5","location_id":"15","name":"First Hotell Witt","stars":"4","price_per_night":"1190","conference":"1","spa":"1","gym":"0","pet_friendly":"1","latitude":"56.7148756","longitude":"16.3407707"},{"id":"12","location_id":"37","name":"Best Western Royal Corner","stars":"4","price_per_night":"1190","conference":"1","spa":"1","gym":"1","pet_friendly":"1","latitude":"56.9018532","longitude":"14.7708662"},{"id":"2","location_id":"5","name":"Ekerum Resort","stars":"4","price_per_night":"1200","conference":"1","spa":"1","gym":"1","pet_friendly":"1","latitude":"56.7849712","longitude":"16.5756647"},{"id":"25","location_id":"51","name":"Clarion Collection Hotel Cardinal","stars":"4","price_per_night":"1200","conference":"1","spa":"1","gym":"1","pet_friendly":"0","latitude":"56.878498","longitude":"14.8030603"},{"id":"24","location_id":"50","name":"Scandic V\u00e4xj\u00f6","stars":"4","price_per_night":"1300","conference":"1","spa":"1","gym":"1","pet_friendly":"1","latitude":"56.8841","longitude":"14.7585263"},{"id":"8","location_id":"27","name":"Sand Golf hotel","stars":"4","price_per_night":"1400","conference":"0","spa":"1","gym":"1","pet_friendly":"0","latitude":"57.8508275","longitude":"14.037062"},{"id":"15","location_id":"40","name":"Hornsj\u00f6n","stars":"4","price_per_night":"1400","conference":"1","spa":"1","gym":"0","pet_friendly":"0","latitude":"57.1384111","longitude":"16.9638276"},{"id":"18","location_id":"43","name":"Fredensborgs Herrg\u00e5rd","stars":"4","price_per_night":"1500","conference":"1","spa":"1","gym":"1","pet_friendly":"1","latitude":"57.576223","longitude":"15.8034903"},{"id":"9","location_id":"31","name":"Badhotellet","stars":"5","price_per_night":"1600","conference":"0","spa":"1","gym":"0","pet_friendly":"0","latitude":"58.0514404","longitude":"15.0037418"},{"id":"22","location_id":"48","name":"Teleborg Castle","stars":"5","price_per_night":"1600","conference":"1","spa":"1","gym":"0","pet_friendly":"0","latitude":"56.8569261","longitude":"14.8319748"},{"id":"23","location_id":"49","name":"Kosta Boda Art Hotel","stars":"5","price_per_night":"1800","conference":"1","spa":"1","gym":"1","pet_friendly":"0","latitude":"56.8490824","longitude":"15.3923398"},{"id":"6","location_id":"20","name":"Stufven\u00e4s v\u00e4rdshus","stars":"4","price_per_night":"1900","conference":"1","spa":"1","gym":"0","pet_friendly":"0","latitude":"56.447787","longitude":"16.0926057"},{"id":"11","location_id":"36","name":"Gr\u00e4ns\u00f6 Slott","stars":"5","price_per_night":"1900","conference":"0","spa":"1","gym":"0","pet_friendly":"0","latitude":"57.7723256","longitude":"16.6548819"},{"id":"13","location_id":"38","name":"Wiredaholms v\u00e4rdshus","stars":"5","price_per_night":"2000","conference":"1","spa":"1","gym":"0","pet_friendly":"1","latitude":"57.910881","longitude":"14.6444743"},{"id":"14","location_id":"39","name":"M\u00f6ckelsn\u00e4s Herrg\u00e5rd","stars":"5","price_per_night":"2400","conference":"1","spa":"0","gym":"0","pet_friendly":"1","latitude":"56.5647087","longitude":"14.1770196"},{"id":"4","location_id":"11","name":"Gr\u00f6nh\u00f6gen Resort","stars":"5","price_per_night":"2500","conference":"1","spa":"1","gym":"1","pet_friendly":"0","latitude":"56.2761096","longitude":"16.3986272"},{"id":"31","location_id":"62","name":"Sky Camp","stars":"2","price_per_night":"4000","conference":"1","spa":"0","gym":"0","pet_friendly":"1","latitude":"57.1802729","longitude":"15.1332988"}]}